stop_id,stop_name,stop_desc,stop_lat,stop_lon,stop_url,location_type,parent_station
1051,Gara,Piata 1 Decembrie 1918,45.799551445959,24.161666035652,https://tursib.ro/statii/1051,0,
1052,Promenada Mall Gara,Strada Lector,45.796475982105,24.159790836275,https://tursib.ro/statii/1052,0,
1054,Casa  Armatei,Bld. Victoriei,45.791303855228,24.146410301328,https://tursib.ro/statii/1054,0,
1056,Regina Maria,,45.78939010507,24.146484732628,https://tursib.ro/statii/1056,0,
1081,Hermann Oberth,,45.795111989824,24.159976243973,https://tursib.ro/statii/1081,0,
1082,Policlinica Stomatologica,Strada Hermann Oberth,45.7946000458,24.16007347405,https://tursib.ro/statii/1082,0,
1111,Alba Iulia,,45.792659875527,24.140741117299,https://tursib.ro/statii/1111,0,
1114,Politie,Bulevardul General Vasile Milea,45.788415670998,24.152517020702,https://tursib.ro/statii/1114,0,
1115,A. Saguna,,45.792128973139,24.146921429783,https://tursib.ro/statii/1115,0,
1116,Colegiul National Octavian Goga,,45.793699106405,24.144588410854,https://tursib.ro/statii/1116,0,
1121,Abatorului,,45.802359116519,24.156602025032,https://tursib.ro/statii/1121,0,
1122,Teclu,Strada Nicolae Teclu,45.801992271496,24.155843462795,https://tursib.ro/statii/1122,0,
1123,BRD,Strada General Magheru,45.799234019756,24.158211350441,https://tursib.ro/statii/1123,0,
1124,Aida,Bulevardul General Vasile Milea,45.788686868372,24.151611272246,https://tursib.ro/statii/1124,0,
1125,Târgu Fânului,,45.803410904724,24.151521921158,https://tursib.ro/statii/1125,0,
1172,Cibinului,,45.8039059395,24.149195104837,https://tursib.ro/statii/1172,0,
1173,Piata Cibin 1,Strada Malului,45.799371579124,24.144030679017,https://tursib.ro/statii/1173,0,
1174,Morilor,Strada Malului,45.796579536625,24.140976816416,https://tursib.ro/statii/1174,0,
1210,Constitutiei 2,,45.797270752273,24.158507734537,https://tursib.ro/statii/1210,0,
1211,Constitutiei 1,,45.797386460514,24.158300533891,https://tursib.ro/statii/1211,0,
1212,Zidul Cetății,Nufarul,45.792506402943,24.151085391641,https://tursib.ro/statii/1212,0,
1213,Parcul Tineretului,,45.796091917047,24.158270359039,https://tursib.ro/statii/1213,0,
1214,Sala Thalia,Muzeul de Stiinte Naturale,45.794386383753,24.154829084873,https://tursib.ro/statii/1214,0,
1215,Spitalul Judetean,,45.79522793631,24.156517535448,https://tursib.ro/statii/1215,0,
1216,Teatru,,45.791681173731,24.1497194767,https://tursib.ro/statii/1216,0,
1217,Spitalul C.F.,,45.791780178504,24.155905991793,https://tursib.ro/statii/1217,0,
1218,Piata Habermann,,45.790423669235,24.153011217713,https://tursib.ro/statii/1218,0,
1221,Electrica,,45.796857005689,24.160107672215,https://tursib.ro/statii/1221,0,
1301,Parcul Astra,,45.792711656357,24.148897379637,https://tursib.ro/statii/1301,0,
1302,Primarie,,45.796939872129,24.149985350668,https://tursib.ro/statii/1302,0,
1303,Teatru Gong,,45.796708804187,24.147169031203,https://tursib.ro/statii/1303,0,
1304,Turnului,,45.798455640043,24.148105457425,https://tursib.ro/statii/1304,0,
1305,Podul Minciunilor,,45.799597493645,24.150525145233,https://tursib.ro/statii/1305,0,
1306,Ocnei,,45.802116267487,24.150770232081,https://tursib.ro/statii/1306,0,
1901,Frunzei 2,Calea Turnisorului,45.795906311925,24.124117456377,https://tursib.ro/statii/1901,0,
1902,Transcom 2,,45.798211605246,24.124812483788,https://tursib.ro/statii/1902,0,
1903,Frigoriferului 2,,45.80163453976,24.124890267849,https://tursib.ro/statii/1903,0,
1904,Magnolia 1,,45.807609912806,24.107859581709,https://tursib.ro/statii/1904,0,
1906,Frigoriferului 1,,45.801711205101,24.12483394146,https://tursib.ro/statii/1906,0,
1907,Transcom 1,,45.797616240005,24.125222358853,https://tursib.ro/statii/1907,0,
1908,Frunzei 1,Calea Turnisorului,45.795705745494,24.123745635152,https://tursib.ro/statii/1908,0,
1909,Kastani,,45.805766604528,24.122964441776,https://tursib.ro/statii/1909,0,
1910,West Side,,45.80596339526,24.122253656387,https://tursib.ro/statii/1910,0,
1911,Frigoriferului 3,,45.803955022028,24.125761985779,https://tursib.ro/statii/1911,0,
1912,Frigoriferului 4,,45.803584798461,24.125719070435,https://tursib.ro/statii/1912,0,
2020,Neveon,,45.779709534307,24.194463081658,https://tursib.ro/statii/2020,0,
2021,Greiner 1,,45.780860774195,24.19317914173,https://tursib.ro/statii/2021,0,
2022,Greiner 2,,45.780574223258,24.193442584947,https://tursib.ro/statii/2022,0,
2023,Retrasib 1,,45.783456851565,24.19294025749,https://tursib.ro/statii/2023,0,
2024,Retrasib 2,,45.78373052808,24.192908741534,https://tursib.ro/statii/2024,0,
2081,Ceferistilor 1,Strada Stefan Cel Mare,45.789637451507,24.170096553862,https://tursib.ro/statii/2081,0,
2082,Ceferistilor 2,Strada Stefan Cel Mare,45.789650075965,24.170255810022,https://tursib.ro/statii/2082,0,
2083,Trei Stejari 1,Strada Stefan Cel Mare,45.789948386398,24.165038913488,https://tursib.ro/statii/2083,0,
2084,Viaduct V.aaron 2,,45.788684062888,24.175321161747,https://tursib.ro/statii/2084,0,
2085,Sembraz,,45.795174170832,24.183945134282,https://tursib.ro/statii/2085,0,
2086,Trei Stejari 2,Strada Stefan Cel Mare,45.789964283774,24.165100604296,https://tursib.ro/statii/2086,0,
2087,Viaduct Vasile Aaron,,45.788607379623,24.174951016903,https://tursib.ro/statii/2087,0,
2088,Henri Coanda,,45.795917999924,24.180496484041,https://tursib.ro/statii/2088,0,
2090,Strungului,,45.799990884257,24.168103337288,https://tursib.ro/statii/2090,0,
2091,Compa 1,,45.797513622425,24.173570349813,https://tursib.ro/statii/2091,0,
2092,Compa II/1,,45.7966622866,24.177142381668,https://tursib.ro/statii/2092,0,
2093,Compa II/2,,45.796573458939,24.177621491253,https://tursib.ro/statii/2093,0,
2094,Otelarilor,,45.799685147765,24.172646999359,https://tursib.ro/statii/2094,0,
2095,Comtram 1,,45.791587195012,24.182502776384,https://tursib.ro/statii/2095,0,
2096,Comtram 2,,45.791444473296,24.182267244905,https://tursib.ro/statii/2096,0,
2097,Concefa,,45.795168092992,24.18429851532,https://tursib.ro/statii/2097,0,
2098,Lazaret 1,,45.80101466855,24.169657677412,https://tursib.ro/statii/2098,0,
2099,Piata Vasile Aaron 1,Strada Semaforului,45.786099685194,24.174541980028,https://tursib.ro/statii/2099,0,
2111,Moldoveanu,Bulevardul General Vasile Milea,45.784464456162,24.16175454855,https://tursib.ro/statii/2111,0,
2121,Stefan Cel Mare 2,,45.788259498118,24.182142019272,https://tursib.ro/statii/2121,0,
2122,Stefan Cel Mare 1,,45.788303451009,24.182482659817,https://tursib.ro/statii/2122,0,
2123,Narcisa,Strada Semaforului,45.783811660459,24.17032957077,https://tursib.ro/statii/2123,0,
2124,CGS,,45.788459156183,24.188889116049,https://tursib.ro/statii/2124,0,
2125,Stefan Cel Mare 3,,45.788388551188,24.188112616539,https://tursib.ro/statii/2125,0,
2126,Irmes 1,,45.7885191236,24.191442579031,https://tursib.ro/statii/2126,0,
2127,Liceul Energetic,Strada Semaforului,45.783278569472,24.169192314148,https://tursib.ro/statii/2127,0,
2128,Piata Vasile Aaron 2,Strada Semaforului,45.78682212598,24.175550490618,https://tursib.ro/statii/2128,0,
2129,Irmes 2,,45.788493523482,24.191109649837,https://tursib.ro/statii/2129,0,
2140,Lazaret 2,,45.801125577386,24.168769530952,https://tursib.ro/statii/2140,0,
2411,Valea Sapunului 1,Shopping City,45.77910344904,24.170316159725,https://tursib.ro/statii/2411,0,
3010,Calea Surii Mari 1,,45.81957999926,24.150434285402,https://tursib.ro/statii/3010,0,
3012,Calea Surii Mari 2,,45.818805642444,24.150255080313,https://tursib.ro/statii/3012,0,
3013,Viile Sibiului 3,,45.835620595401,24.160107672215,https://tursib.ro/statii/3013,0,
3014,Viile Sibiului 4,,45.83276881487,24.156918525696,https://tursib.ro/statii/3014,0,
3015,Viile Sibiului 5,,45.829687942799,24.152738302946,https://tursib.ro/statii/3015,0,
3016,Hornbach 1,,45.82176690327,24.149370957166,https://tursib.ro/statii/3016,0,
3017,Hornbach,,45.822919377285,24.148655142635,https://tursib.ro/statii/3017,0,
3021,Scandia 1,,45.795190534244,24.203159809113,https://tursib.ro/statii/3021,0,
3022,Scandia 2,,45.795385492237,24.202885553241,https://tursib.ro/statii/3022,0,
3041,Piata Tiglari 1,,45.813194855619,24.136787876487,https://tursib.ro/statii/3041,0,
3042,Alimentara Tiglari 1,,45.80964117396,24.140408523381,https://tursib.ro/statii/3042,0,
3043,Alimentara Tiglari 2,,45.809599691774,24.140504412353,https://tursib.ro/statii/3043,0,
3044,Bariera Tiglari 1,,45.81084402705,24.13782119751,https://tursib.ro/statii/3044,0,
3045,Bariera Tiglari 2,,45.81058193489,24.138469286263,https://tursib.ro/statii/3045,0,
3046,Piata Tiglari 2,,45.813339741653,24.135761260986,https://tursib.ro/statii/3046,0,
3048,Lisabona 1,,45.814516576182,24.129946231842,https://tursib.ro/statii/3048,0,
3049,Landshut,,45.815009175467,24.135120213032,https://tursib.ro/statii/3049,0,
3050,Lisabona 2,,45.81496874884,24.131545163691,https://tursib.ro/statii/3050,0,
3051,Londra,,45.816566980345,24.128446374089,https://tursib.ro/statii/3051,0,
3052,Deventer,,45.81457242613,24.128589034081,https://tursib.ro/statii/3052,0,
3053,Facultatea de Drept,,45.781782614122,24.147101975977,https://tursib.ro/statii/3053,0,
3054,Ilarie Chendi,,45.778819110471,24.144815057516,https://tursib.ro/statii/3054,0,
3055,Agentia Tursib 2,,45.774073996619,24.141302704811,https://tursib.ro/statii/3055,0,
3056,Bruxelles 1,,45.799460402325,24.107908196747,https://tursib.ro/statii/3056,0,
3071,Gladiolelor,,45.805594587356,24.148688837886,https://tursib.ro/statii/3071,0,
3072,Viile Sibiului 1,,45.838994164913,24.151714034379,https://tursib.ro/statii/3072,0,
3101,Alecu Russo 1,,45.80561971218,24.171949625015,https://tursib.ro/statii/3101,0,
3102,Alecu Russo 2,,45.806054311409,24.17239420116,https://tursib.ro/statii/3102,0,
3103,Alimentara Gusterita 1,,45.810789049729,24.177792649716,https://tursib.ro/statii/3103,0,
3104,Alimentara Gusterita 2,,45.810715843923,24.177839756012,https://tursib.ro/statii/3104,0,
3105,Calea Gusteritei 1,,45.802143380617,24.1695946455,https://tursib.ro/statii/3105,0,
3106,Calea Gusteritei 2,,45.801940733024,24.169538989663,https://tursib.ro/statii/3106,0,
3107,Carpenului 2,,45.80467021968,24.189735017717,https://tursib.ro/statii/3107,0,
3110,Carpenului 1,,45.804495160711,24.189740717411,https://tursib.ro/statii/3110,0,
3111,Mr. Octavian Nita,,45.811689888074,24.18096318841,https://tursib.ro/statii/3111,0,
3112,Viile Sibiului 2,,45.838789287955,24.155351947993,https://tursib.ro/statii/3112,0,
3121,Liceul Independenta,Strada Raului,45.804994626568,24.150540232658,https://tursib.ro/statii/3121,0,
3122,Rusciorului 1,,45.808713484692,24.149518311024,https://tursib.ro/statii/3122,0,
3123,Strada Lunga,,45.807474827749,24.145831614733,https://tursib.ro/statii/3123,0,
3173,Flaro,Strada Raului,45.803179513022,24.146537035704,https://tursib.ro/statii/3173,0,
3174,Obor 2,,45.813797415463,24.149380847812,https://tursib.ro/statii/3174,0,
3175,Rusciorului 2,,45.805979404927,24.151851749048,https://tursib.ro/statii/3175,0,
3176,Obor 1,,45.81470048354,24.149008356035,https://tursib.ro/statii/3176,0,
3177,Piata Cibin 3,Strada Lunga,45.801113539873,24.14371971041,https://tursib.ro/statii/3177,0,
3178,Gaz Metan,,45.808723300354,24.149682596326,https://tursib.ro/statii/3178,0,
3179,Terezian,Strada Lunga,45.808720495879,24.146502166987,https://tursib.ro/statii/3179,0,
3180,General Balan,Strada Lunga,45.804196226968,24.144273251295,https://tursib.ro/statii/3180,0,
3181,Pod Gusterita 1,,45.807852504181,24.174041748047,https://tursib.ro/statii/3181,0,
3182,Pod Gusterita 2,,45.808148380092,24.174385070801,https://tursib.ro/statii/3182,0,
3183,Reșița 1,,45.807725365866,24.167576283217,https://tursib.ro/statii/3183,0,
3184,Smardan 1,,45.809092204396,24.18311515823,https://tursib.ro/statii/3184,0,
3185,Smardan 2,,45.80921361384,24.182750880718,https://tursib.ro/statii/3185,0,
3186,Tabacarie 2,,45.798756708321,24.197364896536,https://tursib.ro/statii/3186,0,
3187,Tabacarie 1,,45.798876620932,24.197117462754,https://tursib.ro/statii/3187,0,
3190,Reșița 2,,45.807923084517,24.164921566844,https://tursib.ro/statii/3190,0,
3191,Reșița 3,,45.808865393553,24.169211089611,https://tursib.ro/statii/3191,0,
3221,Treboniu Laurian,,45.800287970632,24.166590403765,https://tursib.ro/statii/3221,0,
3241,Viilor 1,,45.807366385528,24.186311513186,https://tursib.ro/statii/3241,0,
3242,Viilor 2,,45.807375500292,24.186216294766,https://tursib.ro/statii/3242,0,
4037,Piata Cluj 2,Str. Kiev,45.802050821946,24.137612991035,https://tursib.ro/statii/4037,0,
4038,Piata Cluj 1,Str. Kiev,45.802121877101,24.1376471892,https://tursib.ro/statii/4038,0,
4039,Kogălniceanu 2,,45.80034757471,24.136221259832,https://tursib.ro/statii/4039,0,
4040,Kogălniceanu 1,,45.79979617612,24.137007817626,https://tursib.ro/statii/4040,0,
4041,Câmpului 1,,45.806225859728,24.136481434107,https://tursib.ro/statii/4041,0,
4042,Câmpului 2,,45.806092173618,24.136329889298,https://tursib.ro/statii/4042,0,
4045,Paris 1,,45.80416444033,24.134025871754,https://tursib.ro/statii/4045,0,
4046,Kiev,,45.800813769897,24.136152947322,https://tursib.ro/statii/4046,0,
4048,Parcul Reconstructiei,,45.800983347575,24.143341854215,https://tursib.ro/statii/4048,0,
4049,Parcul Reconstructiei 2,,45.800346406003,24.142393022776,https://tursib.ro/statii/4049,0,
4050,Paris 2,,45.804645795598,24.133950937539,https://tursib.ro/statii/4050,0,
4075,Zavoi,,45.774927358143,24.106048252434,https://tursib.ro/statii/4075,0,
4076,Stavilarului 1,,45.781504017816,24.109944747761,https://tursib.ro/statii/4076,0,
4077,Stavilarului 2,,45.781584335064,24.109967127442,https://tursib.ro/statii/4077,0,
4078,Zavoi 1,,45.775801665141,24.106624424458,https://tursib.ro/statii/4078,0,
4079,Zavoi 3,,45.780136034806,24.109108150005,https://tursib.ro/statii/4079,0,
4080,Zavoi 2,,45.779878357811,24.108934476972,https://tursib.ro/statii/4080,0,
4081,Asachi 1,,45.783916232204,24.112685127184,https://tursib.ro/statii/4081,0,
4082,Asachi 2,,45.7840894269,24.113081172109,https://tursib.ro/statii/4082,0,
4083,Bieltz,,45.792935610814,24.12061046809,https://tursib.ro/statii/4083,0,
4084,Piata Iancu De Hunedoara 1,,45.785842035762,24.115874022245,https://tursib.ro/statii/4084,0,
4085,Piata Iancu De Hunedoara 2,,45.785792469673,24.11565810442,https://tursib.ro/statii/4085,0,
4086,Lidl,,45.79325377421,24.130205065012,https://tursib.ro/statii/4086,0,
4087,Lidl Sos. Alba Iulia 2,,45.793358737341,24.13013163954,https://tursib.ro/statii/4087,0,
4088,Scoala Generala Nr.10 / 1,Strada Eduard Albert Bielz,45.78924153303,24.118322040886,https://tursib.ro/statii/4088,0,
4089,Scoala Generala Nr.10 / 2,Strada Eduard Albert Bielz,45.789198399137,24.118222296238,https://tursib.ro/statii/4089,0,
4090,Atlanta,,45.795262299436,24.085520803928,https://tursib.ro/statii/4090,0,
4100,Ambient 2,,45.795385024713,24.105079472065,https://tursib.ro/statii/4100,0,
4101,Ambient 3,,45.795043029602,24.102430120111,https://tursib.ro/statii/4101,0,
4102,Ambient 1,Soseaua Alba Iulia,45.792735968784,24.110945798457,https://tursib.ro/statii/4102,0,
4103,Brandl 1,,45.795192404348,24.109042771161,https://tursib.ro/statii/4103,0,
4104,Brandl 2,,45.795730056615,24.108962975442,https://tursib.ro/statii/4104,0,
4105,Turda 1,,45.794222980825,24.096984900534,https://tursib.ro/statii/4105,0,
4106,Turda 2,,45.79423712373,24.09684676677,https://tursib.ro/statii/4106,0,
4107,Phoenix M.p. 1,,45.792892129121,24.089096188545,https://tursib.ro/statii/4107,0,
4108,Siemens,,45.792854725487,24.0942299366,https://tursib.ro/statii/4108,0,
4109,Kendrion,,45.796677247034,24.083958417177,https://tursib.ro/statii/4109,0,
4110,Aeroport 1,Soseaua Alba Iulia,45.790232083749,24.093202147633,https://tursib.ro/statii/4110,0,
4111,Aeroport 2,Soseaua Alba Iulia,45.790193334072,24.092842731625,https://tursib.ro/statii/4111,0,
4113,Biomin,,45.797018530851,24.086997359991,https://tursib.ro/statii/4113,0,
4114,Phoenix M.p. 2,,45.794142097367,24.088565781713,https://tursib.ro/statii/4114,0,
4115,Joyson,,45.792643862033,24.093302898109,https://tursib.ro/statii/4115,0,
4117,Harting 1,,45.798751098368,24.086232930422,https://tursib.ro/statii/4117,0,
4118,Vama 2,Soseaua Alba Iulia,45.790787200593,24.096985906363,https://tursib.ro/statii/4118,0,
4119,Metro,Soseaua Alba Iulia,45.792368475965,24.109000861645,https://tursib.ro/statii/4119,0,
4120,RAR,Soseaua Alba Iulia,45.788939127503,24.083616770804,https://tursib.ro/statii/4120,0,
4171,Distributiei,,45.796780567424,24.134106338024,https://tursib.ro/statii/4171,0,
4172,Autogarii,,45.795416582598,24.131246097386,https://tursib.ro/statii/4172,0,
4173,Piata Cibin 2,Strada Râului,45.79972523487,24.143489375711,https://tursib.ro/statii/4173,0,
4174,Metalurgiștilor,,45.796536057776,24.137734025717,https://tursib.ro/statii/4174,0,
4175,Autogarii 1,,45.797915676558,24.131464362145,https://tursib.ro/statii/4175,0,
4180,Monaco,,45.798908176839,24.082689732313,https://tursib.ro/statii/4180,0,
4181,Turnisor,,45.793668248855,24.122594967485,https://tursib.ro/statii/4181,0,
4182,SC Continental,,45.798309897168,24.077847339213,https://tursib.ro/statii/4182,0,
4183,Simpa 1,,45.79196568048,24.105752035976,https://tursib.ro/statii/4183,0,
4184,Simpa 2,Soseaua Alba Iulia,45.791791516702,24.10423591733,https://tursib.ro/statii/4184,0,
4185,SNR Rulmenti,,45.793518870024,24.077387675643,https://tursib.ro/statii/4185,0,
4186,Vama 1,Soseaua Alba Iulia,45.790634774872,24.096356928349,https://tursib.ro/statii/4186,0,
4187,Bosch,,45.793563520076,24.122825302184,https://tursib.ro/statii/4187,0,
4188,Sos. Alba Iulia Vest,Soseaua Alba Iulia,45.789478476608,24.087542518973,https://tursib.ro/statii/4188,0,
4189,Gradinita Continental,,45.798809535351,24.081712067127,https://tursib.ro/statii/4189,0,
4200,Marquardt,,45.797479377564,24.089934881777,https://tursib.ro/statii/4200,0,
4201,Harting 2,,45.799388525667,24.086664430797,https://tursib.ro/statii/4201,0,
4202,Ifm - Bilstein,,45.790972588983,24.077703505755,https://tursib.ro/statii/4202,0,
4203,Lyon,,45.794285630359,24.078991301358,https://tursib.ro/statii/4203,0,
5010,Calea Dumbravii 1,,45.770388374341,24.13840726018,https://tursib.ro/statii/5010,0,
5011,Muzeul Astra,Calea Dumbravii,45.753777134225,24.115953147411,https://tursib.ro/statii/5011,0,
5012,Dumbrava 2,"Calea Dumbravii, Zoo",45.760370950936,24.126373529434,https://tursib.ro/statii/5012,0,
5013,Agentia Tursib,Calea Dumbravii,45.772951497861,24.140562415123,https://tursib.ro/statii/5013,0,
5016,Calea Dumbravii 2,,45.769929993121,24.137422889471,https://tursib.ro/statii/5016,0,
5017,Cimitirul Eroilor 1,Calea Dumbravii,45.765815619152,24.133060276508,https://tursib.ro/statii/5017,0,
5018,Cimitirul Eroilor 2,Calea Dumbravii,45.765898180913,24.1330056265,https://tursib.ro/statii/5018,0,
5019,Dumbrava 1,"Calea Dumbravii, Hilton",45.760055172881,24.125936329365,https://tursib.ro/statii/5019,0,
5050,Theodor Mihaly 1,Calea Poplacii,45.770473501868,24.125590324402,https://tursib.ro/statii/5050,0,
5051,Spitalul Militar,Bld. Victoriei,45.783781732679,24.138802886009,https://tursib.ro/statii/5051,0,
5052,Bazin Olimpia,Bld. Victoriei,45.787382069598,24.141410999,https://tursib.ro/statii/5052,0,
5053,Bulevardul Victoriei,,45.779421925222,24.136197455227,https://tursib.ro/statii/5053,0,
5054,Parcul Sub Arini,Bld. Victoriei,45.783573173016,24.138741865754,https://tursib.ro/statii/5054,0,
5055,Bazin Olimpia 2,Bld. Victoriei,45.786396611828,24.140423946083,https://tursib.ro/statii/5055,0,
5056,Scoala Militara 1,Bld. Victoriei,45.779015762547,24.135954715312,https://tursib.ro/statii/5056,0,
5057,Theodor Mihaly 2,Calea Poplacii,45.770930007704,24.126101285219,https://tursib.ro/statii/5057,0,
5058,Valea Aurie 1,,45.768091753034,24.124909043312,https://tursib.ro/statii/5058,0,
5059,Valea Aurie 2,,45.768129173284,24.125992655754,https://tursib.ro/statii/5059,0,
5060,Valea Aurie 3,,45.768287273561,24.125605076551,https://tursib.ro/statii/5060,0,
5081,Penny,Soseaua Alba Iulia,45.792588925193,24.134991466999,https://tursib.ro/statii/5081,0,
5082,Kaufland 1,Soseaua Alba Iulia,45.792906856795,24.133723704144,https://tursib.ro/statii/5082,0,
5090,Vasile Milea 1,,45.781189177764,24.164788126946,https://tursib.ro/statii/5090,0,
5091,Calea Cisnadiei,,45.774614658792,24.148517847061,https://tursib.ro/statii/5091,0,
5093,Dima 2,,45.776144012159,24.144196808338,https://tursib.ro/statii/5093,0,
5094,Piata Rahova 1,,45.77699659676,24.1570238024,https://tursib.ro/statii/5094,0,
5095,Aleea Seviș,,45.774835178234,24.15356291458,https://tursib.ro/statii/5095,0,
5096,Piata Rahova 2,,45.77853289979,24.159201085568,https://tursib.ro/statii/5096,0,
5098,Piata Rahova 3,,45.778036821178,24.157279450446,https://tursib.ro/statii/5098,0,
5103,Litovoi Voda,,45.781617537503,24.132590889931,https://tursib.ro/statii/5103,0,
5104,Strand 1,,45.790691817675,24.134071469307,https://tursib.ro/statii/5104,0,
5105,Strand 2,,45.790786265467,24.134315550327,https://tursib.ro/statii/5105,0,
5106,Transilvaniei,,45.790752133363,24.138838425279,https://tursib.ro/statii/5106,0,
5107,Parcul Strand 2,,45.781838263071,24.131813049316,https://tursib.ro/statii/5107,0,
5108,Dimitrie Cantemir,,45.779869940031,24.128792881966,https://tursib.ro/statii/5108,0,
5109,Sacel 1,,45.777719155512,24.126470088959,https://tursib.ro/statii/5109,0,
5110,Sacel 2,,45.779749752695,24.130990281701,https://tursib.ro/statii/5110,0,
5111,Cedonia,,45.780775779436,24.157253466547,https://tursib.ro/statii/5111,0,
5112,Luptei,,45.782550938811,24.162435829639,https://tursib.ro/statii/5112,0,
5113,Miraslau,,45.786018789947,24.158539921045,https://tursib.ro/statii/5113,0,
5114,Mol,Soseaua Alba Iulia,45.79236099517,24.14006922394,https://tursib.ro/statii/5114,0,
5115,Peco Milea,,45.782651947234,24.165193140507,https://tursib.ro/statii/5115,0,
5116,Vasile Milea 2,,45.781574514621,24.16567325592,https://tursib.ro/statii/5116,0,
5141,Siretului 1,Strada Siretului,45.771999694756,24.140249937773,https://tursib.ro/statii/5141,0,
5142,Siretului 2,Strada Siretului,45.771971163798,24.140463173389,https://tursib.ro/statii/5142,0,
5143,Ciresica 1,Strada Siretului,45.772530087286,24.147699102759,https://tursib.ro/statii/5143,0,
5144,Ciresica 2,Strada Siretului,45.772549965215,24.147492237389,https://tursib.ro/statii/5144,0,
5145,Mihai Viteazu,,45.779128235064,24.155643805862,https://tursib.ro/statii/5145,0,
5150,Aron Pumnul,Calea Cisnadiei,45.775614589379,24.148237556219,https://tursib.ro/statii/5150,0,
5151,Sala Transilvania,Centrul de afaceri,45.783493910787,24.146231934428,https://tursib.ro/statii/5151,0,
5152,Alexandru Vlahuță,,45.778304619996,24.140283884481,https://tursib.ro/statii/5152,0,
5155,Scoala De Înot,,45.786431681799,24.147370029241,https://tursib.ro/statii/5155,0,
5156,Justitiei,,45.789003185711,24.144483469427,https://tursib.ro/statii/5156,0,
5171,Bloc 1 Mihai Viteazu,,45.781807398955,24.14981125854,https://tursib.ro/statii/5171,0,
5172,Bloc 9 Mihai Viteazu,Bld. Mihai Viteazu,45.780104819008,24.153183046728,https://tursib.ro/statii/5172,0,
5175,Primăvara,Bld. Mihai Viteazu,45.78028568333,24.1532599926,https://tursib.ro/statii/5175,0,
5177,Lomonosov,Calea Dumbravii,45.785727180311,24.148946329951,https://tursib.ro/statii/5177,0,
5178,Mondex,Strada Malului,45.795682486287,24.136254955083,https://tursib.ro/statii/5178,0,
5179,Nicolae Iorga,,45.778083938898,24.149724841118,https://tursib.ro/statii/5179,0,
5210,Piata Aurel Vlaicu 1,,45.78321228346,24.148227497935,https://tursib.ro/statii/5210,0,
5211,Anton Pann,Calea Dumbravii,45.779434435079,24.145340099931,https://tursib.ro/statii/5211,0,
5213,CEC,Calea Dumbravii,45.786769755183,24.149397611618,https://tursib.ro/statii/5213,0,
5215,Dima 1,Calea Dumbravii,45.776702426147,24.143288880587,https://tursib.ro/statii/5215,0,
5250,Scoala Militara 2,,45.778791050665,24.134151935577,https://tursib.ro/statii/5250,0,
5251,Calea Poplacii,,45.778342091853,24.13362890482,https://tursib.ro/statii/5251,0,
5252,Piata Sadu 1,Calea Poplacii,45.773023525543,24.128390550613,https://tursib.ro/statii/5252,0,
5253,Piata Sadu 2,Calea Poplacii,45.773631547723,24.128886759281,https://tursib.ro/statii/5253,0,
5254,Piata Talmaciu 2,Calea Poplacii,45.776065440898,24.131359755993,https://tursib.ro/statii/5254,0,
5255,Piata Talmaciu 1,Calea Poplacii,45.77551029437,24.130863547325,https://tursib.ro/statii/5255,0,
5258,Scoala Generala Nr.16/ 1,Strada Argesului,45.776443330235,24.14100497961,https://tursib.ro/statii/5258,0,
5301,Shopping City,,45.777309472864,24.171312600374,https://tursib.ro/statii/5301,0,
5410,Valea Sapunului,,45.781252777234,24.167588353157,https://tursib.ro/statii/5410,0,
5511,Bârsei,Strada Maramuresului,45.784587088313,24.132895823568,https://tursib.ro/statii/5511,0,
5512,Biserica Strand,Strada Maramuresului,45.788585637092,24.133014678955,https://tursib.ro/statii/5512,0,
5514,Hategului,Strada Maramuresului,45.784624848206,24.132883921266,https://tursib.ro/statii/5514,0,
5515,Maramuresului,,45.788657878371,24.132972434163,https://tursib.ro/statii/5515,0,
5516,Kaufland 2,Strada Malului,45.793771107286,24.133021384478,https://tursib.ro/statii/5516,0,
9100,Um Poplacii,,45.76838643682,24.122794121504,https://tursib.ro/statii/9100,0,
9101,Uzina De Apa,,45.758495436985,24.110965579748,https://tursib.ro/statii/9101,0,
9201,Paltinis,,45.65444875684,23.931481540203,https://tursib.ro/statii/9201,0,
9202,Paltinis 1 C (Arena Platos),,45.675442884676,23.934745118022,https://tursib.ro/statii/9202,0,
9203,Paltinis 2 C (Centrul de Informare),,45.679066632874,23.939752383158,https://tursib.ro/statii/9203,0,
9204,Paltinis 3 C (Arka Park),,45.688692686334,23.986533209682,https://tursib.ro/statii/9204,0,
9205,Paltinis 3 U (Arka Park),,45.688666675374,23.985500559211,https://tursib.ro/statii/9205,0,
9206,Paltinis 2 U (Centrul de Informare),,45.679172190407,23.93978331238,https://tursib.ro/statii/9206,0,
9207,Paltinis 1 U (Arena Platos),,45.675363403313,23.934576809406,https://tursib.ro/statii/9207,0,
9223,Podului  1,,45.791290296027,24.208140000701,https://tursib.ro/statii/9223,0,
9224,Podului 2,,45.792292732869,24.206890761852,https://tursib.ro/statii/9224,0,
9225,Neculce 1,,45.794255474436,24.14031162858,https://tursib.ro/statii/9225,0,
9227,Autogarii 2,,45.79782667558,24.131576176733,https://tursib.ro/statii/9227,0,
10124,Oncesti,,45.661080310256,23.92505094409,https://tursib.ro/statii/10124,0,
10224,Mai - Curmatura 1,,45.709916908937,24.024344980717,https://tursib.ro/statii/10224,0,
12023,Tribunei,,45.794156824711,24.147583767772,https://tursib.ro/statii/12023,0,
20124,Castelnor 1,,45.684071,23.962764,https://tursib.ro/statii/20124,0,
20221,Tineretului 1,,45.814044361462,24.129966180772,https://tursib.ro/statii/20221,0,
20222,Tiglarilor 1,,45.812442610621,24.133815653622,https://tursib.ro/statii/20222,0,
20223,Tiglarilor 2,,45.812271665676,24.134246651083,https://tursib.ro/statii/20223,0,
20224,Tineretului 2,,45.813290200019,24.131883541122,https://tursib.ro/statii/20224,0,
20225,Schitul Paltinis 1,,45.667646412239,23.937744498253,https://tursib.ro/statii/20225,0,
20226,Schitul Paltinis 2,,45.666780910836,23.937877267599,https://tursib.ro/statii/20226,0,
20231,IFM,,45.799711443975,24.089000970125,https://tursib.ro/statii/20231,0,
22023,Valea Aurie 4,,45.768059,24.126522,https://tursib.ro/statii/22023,0,
30124,Rășinari 1,,45.70507,24.069131,https://tursib.ro/statii/30124,0,
30224,Tropinii Noi 1,,45.728087,24.087893,https://tursib.ro/statii/30224,0,
40124,Rășinari 2,,45.708846,24.062188,https://tursib.ro/statii/40124,0,
40224,Tropinii Noi 2,,45.726443,24.086272,https://tursib.ro/statii/40224,0,
50124,Castelnor 2,,45.684357,23.96291,https://tursib.ro/statii/50124,0,
50224,Mai - Curmatura 2,,45.711647,24.021079,https://tursib.ro/statii/50224,0,
60224,Kaufland Arhitecților 1,,45.770613821682,24.146664105356,https://tursib.ro/statii/60224,0,
70224,Kaufland Arhitecților 2,,45.770623059391,24.146686065942,https://tursib.ro/statii/70224,0,
80224,Penny Arhitecților,,45.772085170613,24.148163124919,https://tursib.ro/statii/80224,0,
162024,Moara de scoarță 2,,45.80494484379,24.152945503593,https://tursib.ro/statii/162024,0,
182024,Zavoi 4,,45.776704296871,24.107025749981,https://tursib.ro/statii/182024,0,
192024,Tractorului,,45.808813978292,24.131529405713,https://tursib.ro/statii/192024,0,
202309,Cindrel,,45.654383372408,23.933285661042,https://tursib.ro/statii/202309,0,
262024,Moara de scoarță 1,,45.806138,24.156255,https://tursib.ro/statii/262024,0,
292024,Calea Turnisorului 1,,45.800183488035,24.131163954735,https://tursib.ro/statii/292024,0,
362024,Viitorului Blocuri 2,,45.806565215337,24.161466211081,https://tursib.ro/statii/362024,0,
382024,Cartierul Primăverii 1,,45.754245473433,24.143758937717,https://tursib.ro/statii/382024,0,
392024,Calea Turnisorului 2,,45.799700341132,24.130539335311,https://tursib.ro/statii/392024,0,
462024,Viitorului Blocuri 1,,45.80708826766,24.160910658538,https://tursib.ro/statii/462024,0,
482024,Lidl Arhitectilor 1,,45.762043024427,24.145232643932,https://tursib.ro/statii/482024,0,
562024,Aeroport Terminal,,45.7894588385,24.093853086233,https://tursib.ro/statii/562024,0,
592024,Cartierul Primăverii 2,,45.753647767107,24.143570009619,https://tursib.ro/statii/592024,0,
662024,Neculce 2,,45.795458893511,24.139902591705,https://tursib.ro/statii/662024,0,
692024,Lidl Arhitectilor 2,,45.761202,24.145017,https://tursib.ro/statii/692024,0,
762024,Magnolia 2,,45.807629544518,24.10527812317,https://tursib.ro/statii/762024,0,
862024,Bruxelles 2,,45.799805876481,24.107767883688,https://tursib.ro/statii/862024,0,
962024,Odu 2,,45.796942092808,24.109316021204,https://tursib.ro/statii/962024,0,
1062024,Kogălniceanu 3,,45.801130602755,24.13487110287,https://tursib.ro/statii/1062024,0,
2023091,Telescaun,,45.651501,23.929204,https://tursib.ro/statii/2023091,0,
2023092,Odu 1,,45.796727387836,24.109479803592,https://tursib.ro/statii/2023092,0,
21122024,VGP PARK,,45.824957906958,24.1519510746,https://tursib.ro/statii/21122024,0,
